{
  "ActorName": "BP_Solaris_Urbino_18m_4D_C_2147441325",
  "IsPlayerControlled": "true",
  "VehicleModel": "Urban",
  "InputIdentifier": "urbino",
  "Speed": 0.0,
  "RPM": 0.0,
  "IdleRPM": 0.0,
  "MaxRPM": 11000.0,
  "Mass": 20619.519531,
  "Steering": 0.0,
  "Throttle": 0.0,
  "Brake": 0.8,
  "FixingBrake": "true",
  "Load": 0.0,
  "EngineStarted": "true",
  "GearboxType": "None",
  "LowFuelWarning": "false",
  "Location": {
    "X": 4468.713276,
    "Y": -4302.075992,
    "Z": -483.936451
  },
  "Rotation": {
    "Roll": -3.941828,
    "Pitch": 0.045979,
    "Yaw": -58.958889
  },
  "IndicatorState": 0,
  "IndicatorValue": 0,
  "WarningLights": "false",
  "IsOffroad": "false",
  "Gearbox": {
    "CurrentSelector": "N"
  },
  "Wheels": [
    {
      "CurrentSuspension": 13.646168,
      "PreviousSuspension": 13.646166,
      "Location": {
        "X": 329.052307,
        "Y": -116.899414,
        "Z": 41.646168
      },
      "Rotation": {
        "Roll": 0.0,
        "Pitch": 0.0,
        "Yaw": 0.0
      },
      "SuspensionForce": 3771100.178165,
      "OnGround": "true",
      "HasContraction": "true"
    },
    {
      "CurrentSuspension": 15.948244,
      "PreviousSuspension": 15.948243,
      "Location": {
        "X": 329.052307,
        "Y": 116.899414,
        "Z": 43.948244
      },
      "Rotation": {
        "Roll": 0.0,
        "Pitch": 0.0,
        "Yaw": 0.0
      },
      "SuspensionForce": 4424828.680418,
      "OnGround": "true",
      "HasContraction": "true"
    },
    {
      "CurrentSuspension": 13.334547,
      "PreviousSuspension": 13.334553,
      "Location": {
        "X": -260.139771,
        "Y": -116.899414,
        "Z": 41.334547
      },
      "Rotation": {
        "Roll": 0.0,
        "Pitch": 0.0,
        "Yaw": 0.0
      },
      "SuspensionForce": 3053238.487319,
      "OnGround": "true",
      "HasContraction": "true"
    },
    {
      "CurrentSuspension": 15.3055,
      "PreviousSuspension": 15.305506,
      "Location": {
        "X": -260.139771,
        "Y": 116.899414,
        "Z": 43.3055
      },
      "Rotation": {
        "Roll": 0.0,
        "Pitch": 0.0,
        "Yaw": 0.0
      },
      "SuspensionForce": 3575854.01809,
      "OnGround": "true",
      "HasContraction": "true"
    },
    {
      "CurrentSuspension": 15.794976,
      "PreviousSuspension": 15.794976,
      "Location": {
        "X": -340.291626,
        "Y": -116.899994,
        "Z": 11.794976
      },
      "Rotation": {
        "Roll": 0.0,
        "Pitch": -0.0,
        "Yaw": 0.0
      },
      "SuspensionForce": 3605561.197416,
      "OnGround": "true",
      "HasContraction": "true"
    },
    {
      "CurrentSuspension": 14.472946,
      "PreviousSuspension": 14.472946,
      "Location": {
        "X": -340.291626,
        "Y": 116.899994,
        "Z": 10.472946
      },
      "Rotation": {
        "Roll": 0.0,
        "Pitch": -0.0,
        "Yaw": 0.0
      },
      "SuspensionForce": 2431955.032484,
      "OnGround": "true",
      "HasContraction": "true"
    }
  ],
  "IsRadioPlaying": "false",
  "ActiveRadioChannel": "",
  "RadioVolume": 0.28,
  "PassengerDoorsOpen": "true",
  "LuggageDoorsOpen": "false",
  "NumSeats": 36,
  "NumOccupiedSeats": 7,
  "IgnitionEnabled": "true",
  "EngineTemperature": 0.497958,
  "WiperLevel": 0,
  "DestinationDisplayActive": "true",
  "CruiseControlActive": "false",
  "AllowedSpeed": 20.0,
  "IsAtStop": "true",
  "DirtIntensity": 0.0,
  "CurrentFuel": 267.337006,
  "MaxFuel": 300.0,
  "DisplayFuel": 0.891123,
  "Buttons": [
    {
      "Name": "Pantograph",
      "Tooltip": "Stromabnehmer einfahren",
      "State": "Primary",
      "Actions": [
        "Deactivate Pantograph",
        "Activate Pantograph",
        "None"
      ],
      "States": [
        "Primary",
        "Secondary"
      ]
    },
    {
      "Name": "Driver Window",
      "Tooltip": "",
      "State": "Primary",
      "Actions": [
        "DriverWindowClose",
        "DriverWindowOpen",
        "None"
      ],
      "States": [
        "Primary",
        "Secondary"
      ]
    },
    {
      "Name": "Manual Shade",
      "Tooltip": "",
      "State": "None",
      "Value": "0.0",
      "Actions": [
        "WindowShadeSideUp",
        "WindowShadeSideDown"
      ],
      "States": []
    },
    {
      "Name": "Window Shade Up",
      "State": "Off",
      "Actions": [
        "WindowShadeUp"
      ],
      "States": [
        "On",
        "Off"
      ]
    },
    {
      "Name": "Window Shade Down",
      "State": "Off",
      "Actions": [
        "WindowShadeDown"
      ],
      "States": [
        "On",
        "Off"
      ]
    },
    {
      "Name": "Window Shade",
      "Tooltip": "",
      "State": "Primary",
      "Actions": [
        "WindowShadeUp",
        "WindowShadeDown",
        "None"
      ],
      "States": [
        "Primary",
        "Secondary"
      ]
    },
    {
      "Name": "Wiper",
      "Tooltip": "",
      "State": "Off",
      "Actions": [
        "WiperDown",
        "WiperUp"
      ],
      "States": [
        "fast",
        "On",
        "Interval",
        "Off"
      ]
    },
    {
      "Name": "Window Heating",
      "State": "Primary",
      "Actions": [],
      "States": [
        "Primary",
        "Secondary"
      ]
    },
    {
      "Name": "Mirror Heating",
      "State": "Primary",
      "Actions": [],
      "States": [
        "Primary",
        "Secondary"
      ]
    },
    {
      "Name": "Horn",
      "Tooltip": "Hupe",
      "State": "false",
      "Actions": [
        "Horn"
      ],
      "States": [
        "On",
        "Off"
      ]
    },
    {
      "Name": "Parking Brake",
      "Tooltip": "Feststellbremse",
      "State": "Primary",
      "Actions": [
        "FixingBrake"
      ],
      "States": [
        "Primary",
        "Secondary"
      ]
    },
    {
      "Name": "Gear Selector",
      "Tooltip": "",
      "State": "Neutral",
      "Actions": [
        "GearDown",
        "GearUp"
      ],
      "States": [
        "Drive",
        "Neutral",
        "Reverse"
      ]
    },
    {
      "Name": "Gear Drive",
      "State": "Off",
      "Actions": [
        "SetGearD"
      ],
      "States": [
        "On",
        "Off"
      ]
    },
    {
      "Name": "Gear Neutral",
      "State": "Off",
      "Actions": [
        "SetGearN"
      ],
      "States": [
        "On",
        "Off"
      ]
    },
    {
      "Name": "Gear Reverse",
      "State": "Off",
      "Actions": [
        "SetGearR"
      ],
      "States": [
        "On",
        "Off"
      ]
    },
    {
      "Name": "Fake Ignition",
      "Tooltip": "",
      "State": "Start",
      "Actions": [
        "MotorStartStop"
      ],
      "States": [
        "Start",
        "On",
        "Off"
      ]
    },
    {
      "Name": "Indicator",
      "Tooltip": "",
      "State": "Primary",
      "Actions": [
        "IndicatorDown",
        "IndicatorUp",
        "None"
      ],
      "States": [
        "Primary",
        "Secondary",
        "Tertiary"
      ]
    },
    {
      "Name": "Light Switch",
      "State": "Off",
      "Value": "0.0",
      "Actions": [
        "Lightswitch",
        "LightSwitchDownFake",
        "LightSwitchUpFake"
      ],
      "States": [
        "Off",
        "Parking Lights",
        "Headlights"
      ]
    },
    {
      "Name": "Headlight",
      "State": "Primary",
      "Actions": [
        "ToggleLightSwitch"
      ],
      "States": [
        "Primary",
        "Secondary"
      ]
    },
    {
      "Name": "Main Light",
      "State": "Primary",
      "Actions": [
        "ToggleMainLight"
      ],
      "States": [
        "Primary",
        "Secondary"
      ]
    },
    {
      "Name": "High Beam",
      "Tooltip": "Fernlicht einschalten",
      "State": "Primary",
      "Actions": [
        "ToggleTravellerLights"
      ],
      "States": [
        "Primary",
        "Secondary"
      ]
    },
    {
      "Name": "TravellerLights",
      "Tooltip": "",
      "State": "false",
      "Actions": [
        "High Beam Flasher On"
      ],
      "States": [
        "On",
        "Off"
      ]
    },
    {
      "Name": "Front Fog Light",
      "State": "Primary",
      "Actions": [
        "ToggleFogLight"
      ],
      "States": [
        "Primary",
        "Secondary"
      ]
    },
    {
      "Name": "Rear Fog Light",
      "State": "Primary",
      "Actions": [
        "ToggleFogLightRear"
      ],
      "States": [
        "Primary",
        "Secondary"
      ]
    },
    {
      "Name": "Warning Light",
      "Tooltip": "",
      "State": "Primary",
      "Actions": [
        "ToggleWarningLights",
        "None"
      ],
      "States": [
        "Primary",
        "Secondary"
      ]
    },
    {
      "Name": "AirCon Airflow",
      "State": "Airflow 2",
      "Value": "0.333333",
      "Actions": [
        "AirCon AirflowFakeLeft",
        "AirCon AirflowFakeRight"
      ],
      "States": [
        "Airflow 1",
        "Airflow 2",
        "Airflow 3",
        "Airflow 4"
      ]
    },
    {
      "Name": "Driver Fan Speed",
      "State": "None",
      "Value": "0.5",
      "Actions": [
        "None"
      ],
      "States": []
    },
    {
      "Name": "Driver Temperature",
      "State": "None",
      "Value": "0.5",
      "Actions": [
        "None"
      ],
      "States": []
    },
    {
      "Name": "Air Condition",
      "State": "Primary",
      "Actions": [
        "ToggleAirCondition"
      ],
      "States": [
        "Primary",
        "Secondary"
      ]
    },
    {
      "Name": "Air Condition Temperature",
      "Tooltip": "",
      "State": "Primary",
      "Actions": [
        "AirconditionPlus",
        "AirconditionMinus",
        "None"
      ],
      "States": [
        "Primary",
        "Secondary"
      ]
    },
    {
      "Name": "AirCon Warmer",
      "Tooltip": "",
      "State": "false",
      "Actions": [
        "AirconditionPlus"
      ],
      "States": [
        "On",
        "Off"
      ]
    },
    {
      "Name": "AirCon Colder",
      "Tooltip": "",
      "State": "false",
      "Actions": [
        "AirconditionMinus"
      ],
      "States": [
        "On",
        "Off"
      ]
    },
    {
      "Name": "Aircon Mode 1",
      "State": "Primary",
      "Actions": [],
      "States": [
        "Primary",
        "Secondary"
      ]
    },
    {
      "Name": "Aircon Mode 2",
      "State": "Primary",
      "Actions": [],
      "States": [
        "Primary",
        "Secondary"
      ]
    },
    {
      "Name": "Reset Lifting",
      "State": "Primary",
      "Actions": [
        "LiftReset_ButtonReset",
        "LiftReset"
      ],
      "States": [
        "Primary",
        "Secondary"
      ]
    },
    {
      "Name": "Kneeling",
      "State": "Primary",
      "Actions": [
        "KneelDown",
        "KneelUp"
      ],
      "States": [
        "Primary",
        "Secondary"
      ]
    },
    {
      "Name": "Lifting",
      "State": "Primary",
      "Actions": [
        "LiftDown",
        "LiftUp"
      ],
      "States": [
        "Primary",
        "Secondary"
      ]
    },
    {
      "Name": "Door Button",
      "Tooltip": "",
      "State": "false",
      "Actions": [
        "None"
      ],
      "States": [
        "On",
        "Off"
      ]
    },
    {
      "Name": "Driver Light",
      "State": "Primary",
      "Actions": [
        "ToggleDriversLight"
      ],
      "States": [
        "Primary",
        "Secondary"
      ]
    },
    {
      "Name": "Interior Light",
      "State": "Primary",
      "Actions": [
        "TogglePassengersLight"
      ],
      "States": [
        "Primary",
        "Secondary"
      ]
    },
    {
      "Name": "Interior Light Full",
      "State": "Primary",
      "Actions": [
        "INTLightFull"
      ],
      "States": [
        "Primary",
        "Secondary"
      ]
    },
    {
      "Name": "Interior Light Dim",
      "State": "Primary",
      "Actions": [
        "INTLightDim"
      ],
      "States": [
        "Primary",
        "Secondary"
      ]
    },
    {
      "Name": "Interior Light Left",
      "State": "Primary",
      "Actions": [
        "INTLightLeftOnly"
      ],
      "States": [
        "Primary",
        "Secondary"
      ]
    },
    {
      "Name": "Interior Light Right",
      "State": "Primary",
      "Actions": [
        "INTLightRightOnly"
      ],
      "States": [
        "Primary",
        "Secondary"
      ]
    },
    {
      "Name": "Automatic Kneeling",
      "State": "Primary",
      "Actions": [
        "toggleAutoKneeling"
      ],
      "States": [
        "Primary",
        "Secondary"
      ]
    },
    {
      "Name": "Automatic Door Closing",
      "State": "Primary",
      "Actions": [
        "PreventRearAuto"
      ],
      "States": [
        "Primary",
        "Secondary"
      ]
    },
    {
      "Name": "Door Lock",
      "Tooltip": "Rechte Vordertüre sperren",
      "State": "Primary",
      "Actions": [
        "FakeDoorWingLockOff",
        "FakeDoorWingLockLeft",
        "FakeDoorWingLockRight",
        "None"
      ],
      "States": [
        "Primary",
        "Secondary",
        "Tertiary"
      ]
    },
    {
      "Name": "Door Lock Left",
      "State": "Primary",
      "Actions": [
        "LockLeftDoor"
      ],
      "States": [
        "Primary",
        "Secondary"
      ]
    },
    {
      "Name": "Door Lock Right",
      "State": "Primary",
      "Actions": [
        "LockRightDoor"
      ],
      "States": [
        "Primary",
        "Secondary"
      ]
    },
    {
      "Name": "Button08",
      "State": "Off",
      "Actions": [
        "None"
      ],
      "States": [
        "On",
        "Off"
      ]
    },
    {
      "Name": "Stop Brake",
      "Tooltip": "Haltestellenbremse umschalten",
      "State": "false",
      "Actions": [
        "StopBrakeOnOff"
      ],
      "States": [
        "On",
        "Off"
      ]
    },
    {
      "Name": "Door Clearance",
      "State": "Primary",
      "Actions": [
        "ToggleDoorClearance"
      ],
      "States": [
        "Primary",
        "Secondary"
      ]
    },
    {
      "Name": "Door 1",
      "Tooltip": "Vordere Tür öffnen/schließen",
      "State": "false",
      "Actions": [
        "DoorFrontOpenClose"
      ],
      "States": [
        "On",
        "Off"
      ]
    },
    {
      "Name": "Door 2",
      "Tooltip": "Zweite Tür Öffnen/Schließen",
      "State": "false",
      "Actions": [
        "DoorMiddleOpenClose"
      ],
      "States": [
        "On",
        "Off"
      ]
    },
    {
      "Name": "Door 3",
      "Tooltip": "Dritte Tür öffnen/schließen",
      "State": "false",
      "Actions": [
        "DoorRearOpenClose"
      ],
      "States": [
        "On",
        "Off"
      ]
    },
    {
      "Name": "Door 4",
      "Tooltip": "Vierte Tür öffnen/schließen",
      "State": "false",
      "Actions": [
        "DoorFourthOpenClose"
      ],
      "States": [
        "On",
        "Off"
      ]
    },
    {
      "Name": "Driver Door",
      "Tooltip": "",
      "State": "None",
      "Value": "1.0",
      "Actions": [
        "None"
      ],
      "States": []
    },
    {
      "Name": "ValveReset",
      "Tooltip": "",
      "State": "false",
      "Actions": [
        "None"
      ],
      "States": [
        "On",
        "Off"
      ]
    },
    {
      "Name": "Driver Door Lock",
      "State": "Primary",
      "Actions": [
        "DriverDoorLock"
      ],
      "States": [
        "Primary",
        "Secondary"
      ]
    },
    {
      "Name": "USB Clearance",
      "State": "Primary",
      "Actions": [
        "ToggleUSB"
      ],
      "States": [
        "Primary",
        "Secondary"
      ]
    },
    {
      "Name": "Driver Monitor",
      "State": "Off",
      "Actions": [
        "SwitchCamera"
      ],
      "States": [
        "On",
        "Off"
      ]
    },
    {
      "Name": "Hill Holder",
      "State": "Primary",
      "Actions": [],
      "States": [
        "Primary",
        "Secondary"
      ]
    },
    {
      "Name": "Wheelchair Request",
      "State": "Primary",
      "Actions": [
        "WheelchairRequest"
      ],
      "States": [
        "Primary",
        "Secondary"
      ]
    },
    {
      "Name": "BoardComputer",
      "Tooltip": "Atron auswählen",
      "State": "false",
      "Actions": [
        "Select Boardcomputer"
      ],
      "States": [
        "On",
        "Off"
      ]
    },
    {
      "Name": "AtronHolderSled",
      "Tooltip": "",
      "State": "None",
      "Value": "0.5",
      "Actions": [
        "None"
      ],
      "States": []
    },
    {
      "Name": "Vent Left",
      "Tooltip": "",
      "State": "None",
      "Value": "0.8",
      "Actions": [
        "None"
      ],
      "States": []
    },
    {
      "Name": "Vent Right",
      "Tooltip": "",
      "State": "None",
      "Value": "0.2",
      "Actions": [
        "None"
      ],
      "States": []
    },
    {
      "Name": "TractionControl",
      "State": "Primary",
      "Actions": [
        "ToggleASRThreshold"
      ],
      "States": [
        "Primary",
        "Secondary"
      ]
    },
    {
      "Name": "15 Cent",
      "Tooltip": "0.15 €",
      "State": "false",
      "Actions": [
        "Coins15"
      ],
      "States": [
        "On",
        "Off"
      ]
    },
    {
      "Name": "20 Cent",
      "Tooltip": "0.20 €",
      "State": "false",
      "Actions": [
        "Coins20"
      ],
      "States": [
        "On",
        "Off"
      ]
    },
    {
      "Name": "30 Cent",
      "Tooltip": "0.30 €",
      "State": "false",
      "Actions": [
        "Coins30"
      ],
      "States": [
        "On",
        "Off"
      ]
    },
    {
      "Name": "50 Cent",
      "Tooltip": "0.50 €",
      "State": "false",
      "Actions": [
        "Coins50"
      ],
      "States": [
        "On",
        "Off"
      ]
    },
    {
      "Name": "60 Cent",
      "Tooltip": "0.60 €",
      "State": "false",
      "Actions": [
        "Coins60"
      ],
      "States": [
        "On",
        "Off"
      ]
    },
    {
      "Name": "1 Euro",
      "Tooltip": "1 €",
      "State": "false",
      "Actions": [
        "Coins100"
      ],
      "States": [
        "On",
        "Off"
      ]
    },
    {
      "Name": "2 Euro",
      "Tooltip": "2 €",
      "State": "false",
      "Actions": [
        "Coins200"
      ],
      "States": [
        "On",
        "Off"
      ]
    },
    {
      "Name": "4 Euro",
      "Tooltip": "4 €",
      "State": "false",
      "Actions": [
        "Coins400"
      ],
      "States": [
        "On",
        "Off"
      ]
    },
    {
      "Name": "6 Euro",
      "Tooltip": "6 €",
      "State": "false",
      "Actions": [
        "Coins600"
      ],
      "States": [
        "On",
        "Off"
      ]
    },
    {
      "Name": "8 Euro",
      "Tooltip": "8 €",
      "State": "false",
      "Actions": [
        "Coins800"
      ],
      "States": [
        "On",
        "Off"
      ]
    },
    {
      "Name": "5 Cent",
      "Tooltip": "0,05 €",
      "State": "false",
      "Actions": [
        "Coins5"
      ],
      "States": [
        "On",
        "Off"
      ]
    },
    {
      "Name": "10 Cent",
      "Tooltip": "0.1 €",
      "State": "false",
      "Actions": [
        "Coins10"
      ],
      "States": [
        "On",
        "Off"
      ]
    },
    {
      "Name": "Cash Money",
      "Tooltip": "",
      "State": "false",
      "Actions": [
        "Take Cash Money"
      ],
      "States": [
        "On",
        "Off"
      ]
    }
  ],
  "Doors": [
    {
      "Name": "Door Front",
      "Open": "true",
      "Progress": "1.0",
      "StopRequest": "false"
    },
    {
      "Name": "Door Fourth",
      "Open": "false",
      "Progress": "0.0",
      "StopRequest": "false"
    },
    {
      "Name": "Door Third",
      "Open": "false",
      "Progress": "0.0",
      "StopRequest": "false"
    },
    {
      "Name": "Door Second",
      "Open": "false",
      "Progress": "0.0",
      "StopRequest": "false"
    }
  ],
  "UMG": {
    "Driver Display": "/vehicles/BP_Solaris_Urbino_18m_4D_C_2147441325/driverdisplayfull",
    "Driver Display Simulator": "/vehicles/BP_Solaris_Urbino_18m_4D_C_2147441325/driverdisplay",
    "Navigation": "/vehicles/BP_Solaris_Urbino_18m_4D_C_2147441325/navigation",
    "Atron": "/vehicles/BP_Solaris_Urbino_18m_4D_C_2147441325/boardcomputer"
  },
  "AllLamps": {
    "Default Emissive Materials": 0.0,
    "Light Indicator Left": 0.0,
    "Light Indicator Right": 0.0,
    "Light Daytime Right": 1.0,
    "Light Daytime Left": 1.0,
    "Light MAIN": 1.0,
    "Light Parking": 0.0,
    "Light Headlight": 0.0,
    "Light Travelling": 0.0,
    "Light Flasher": 0.0,
    "Light BRAKE": 1.0,
    "Light Reverse": 0.0,
    "Light Front Fog": 0.0,
    "Light Rear Fog": 0.0,
    "Light License Plate": 10.0,
    "Passenger Lights": 0.0,
    "Passenger Lights Left": 0.0,
    "Passenger Lights Right": 0.0,
    "Light Door 1": 1.0,
    "Light Door 2": 0.0,
    "Light Door 3": 0.0,
    "Light Door 4": 0.0,
    "Second Door Light Ext": 0.0,
    "Third Door Light Ext": 0.0,
    "Fourth Door Light Ext": 0.0,
    "Light Driver": 0.0,
    "LightOnOff": 0.0,
    "LED Warning": 0.0,
    "LED Stop Brake": 1.0,
    "ButtonLight Door 1": 1.0,
    "ButtonLight Door 2": 0.0,
    "ButtonLight Door 3": 0.0,
    "ButtonLight Door 4": 0.0,
    "SecondDoorRequest": 0.0,
    "ThirdDoorRequest": 0.0,
    "FourthDoorRequest": 0.0,
    "CameraButtonLED": 0.0,
    "Default Emissive": 0.0,
    "DB Warning Light": 0.0,
    "DB Dot": 0.0,
    "DB Parkbrake": 0.0,
    "Dashboard Indicator Right": 0.0,
    "Dashboard Fixing Brake": 1.0,
    "Dashboard Door 2": 0.0,
    "Dashboard Brake Assist": 0.0,
    "Dashboard Differential": 0.0,
    "Dashboard Fog Light": 0.0,
    "Dashboard Engine": 0.0,
    "Dashboard Turning": 0.0,
    "Dashboard Load Transfer": 0.0,
    "Dashboard Lifting": 0.0,
    "Dashboard Retarder": 0.0,
    "Dashboard Seatbelts": 0.0,
    "DB Stop Request": 0.0,
    "DoorClearanceButton": 0.0,
    "USB_Clearance": 0.0
  },
  "BusLogic": {
    "Sales": {}
  }
}